,City,Country,Lat,Lng,Hotel Name
168,Vestmannaeyjar,IS,63.4427,-20.2734,Puffin Nest Capsule Hostel
306,Hofn,IS,64.2539,-15.2082,Aurora Cabins Höfn Iceland
414,Taku,CN,39.0211,117.6469,InterContinental TIANJIN YUJIAPU HOTEL & RESIDENCES
428,Ziarat,PK,30.3823,67.7282,Grand Hotel
539,Bǝrdǝ,AZ,40.3744,47.1267,Hotel
